{
"type": "FeatureCollection",
"name": "bluebike_stations",
"crs": { "type": "name", "properties": { "name": "urn:ogc:def:crs:OGC:1.3:CRS84" } },
"features": [
{ "type": "Feature", "properties": { "Number": "A32019", "Name": "175 N Harvard St", "District": "Boston", "Public": "Yes", "Total docks": 18.0 }, "geometry": { "type": "Point", "coordinates": [ -71.129164, 42.363796 ] } },
{ "type": "Feature", "properties": { "Number": "S32035", "Name": "191 Beacon St", "District": "Somerville", "Public": "Yes", "Total docks": 19.0 }, "geometry": { "type": "Point", "coordinates": [ -71.10878613, 42.38032335 ] } },
{ "type": "Feature", "properties": { "Number": "S32023", "Name": "30 Dane St", "District": "Somerville", "Public": "Yes", "Total docks": 15.0 }, "geometry": { "type": "Point", "coordinates": [ -71.10402523, 42.38100143 ] } },
{ "type": "Feature", "properties": { "Number": "M32026", "Name": "359 Broadway - Broadway at Fayette Street", "District": "Cambridge", "Public": "Yes", "Total docks": 23.0 }, "geometry": { "type": "Point", "coordinates": [ -71.104412, 42.370803 ] } },
{ "type": "Feature", "properties": { "Number": "M32054", "Name": "699 Mt Auburn St", "District": "Cambridge", "Public": "Yes", "Total docks": 25.0 }, "geometry": { "type": "Point", "coordinates": [ -71.14871614, 42.37500235 ] } },
{ "type": "Feature", "properties": { "Number": "V32001", "Name": "7 Acre Park", "District": "Everett", "Public": "Yes", "Total docks": 15.0 }, "geometry": { "type": "Point", "coordinates": [ -71.06823265, 42.41143223 ] } },
{ "type": "Feature", "properties": { "Number": "B32060", "Name": "700 Commonwealth Ave.", "District": "Boston", "Public": "Yes", "Total docks": 12.0 }, "geometry": { "type": "Point", "coordinates": [ -71.10391524, 42.34960945 ] } },
{ "type": "Feature", "properties": { "Number": "M32060", "Name": "700 Huron Ave", "District": "Cambridge", "Public": "Yes", "Total docks": 19.0 }, "geometry": { "type": "Point", "coordinates": [ -71.15412891, 42.38078817 ] } },
{ "type": "Feature", "properties": { "Number": "M32064", "Name": "75 Binney St", "District": "Cambridge", "Public": "Yes", "Total docks": 19.0 }, "geometry": { "type": "Point", "coordinates": [ -71.0801376, 42.36550729 ] } },
{ "type": "Feature", "properties": { "Number": "M32058", "Name": "84 Cambridgepark Dr", "District": "Cambridge", "Public": "Yes", "Total docks": 25.0 }, "geometry": { "type": "Point", "coordinates": [ -71.143941, 42.3936 ] } },
{ "type": "Feature", "properties": { "Number": "C32065", "Name": "Adams St at Lonsdale St", "District": "Boston", "Public": "Yes", "Total docks": 19.0 }, "geometry": { "type": "Point", "coordinates": [ -71.05726346, 42.29167943 ] } },
{ "type": "Feature", "properties": { "Number": "A32032", "Name": "Airport T Stop - Bremen St at Brooks St", "District": "Boston", "Public": "Yes", "Total docks": 15.0 }, "geometry": { "type": "Point", "coordinates": [ -71.03133336, 42.37535497 ] } },
{ "type": "Feature", "properties": { "Number": "C32061", "Name": "Albany St at E. Brookline St", "District": "Boston", "Public": "Yes", "Total docks": 15.0 }, "geometry": { "type": "Point", "coordinates": [ -71.0689446, 42.33664795 ] } },
{ "type": "Feature", "properties": { "Number": "M32046", "Name": "Alewife MBTA at Steel Place", "District": "Cambridge", "Public": "Yes", "Total docks": 19.0 }, "geometry": { "type": "Point", "coordinates": [ -71.14260614, 42.39558846 ] } },
{ "type": "Feature", "properties": { "Number": "M32033", "Name": "Alewife Station at Russell Field", "District": "Cambridge", "Public": "Yes", "Total docks": 23.0 }, "geometry": { "type": "Point", "coordinates": [ -71.139459, 42.396105 ] } },
{ "type": "Feature", "properties": { "Number": "C32079", "Name": "American Legion Hwy at Canterbury St", "District": "Boston", "Public": "Yes", "Total docks": 15.0 }, "geometry": { "type": "Point", "coordinates": [ -71.11687703, 42.27881158 ] } },
{ "type": "Feature", "properties": { "Number": "M32059", "Name": "Ames St at Broadway", "District": "Cambridge", "Public": "Yes", "Total docks": 19.0 }, "geometry": { "type": "Point", "coordinates": [ -71.0875672, 42.3636929 ] } },
{ "type": "Feature", "properties": { "Number": "M32037", "Name": "Ames St at Main St", "District": "Cambridge", "Public": "Yes", "Total docks": 19.0 }, "geometry": { "type": "Point", "coordinates": [ -71.08822, 42.3625 ] } },
{ "type": "Feature", "properties": { "Number": "C32012", "Name": "Andrew T Stop - Dorchester Ave at Dexter St", "District": "Boston", "Public": "Yes", "Total docks": 15.0 }, "geometry": { "type": "Point", "coordinates": [ -71.05701685, 42.33047365 ] } },
{ "type": "Feature", "properties": { "Number": "B32004", "Name": "Aquarium T Stop - 200 Atlantic Ave", "District": "Boston", "Public": "Yes", "Total docks": 23.0 }, "geometry": { "type": "Point", "coordinates": [ -71.05142981, 42.35991176 ] } },
{ "type": "Feature", "properties": { "Number": "D32004", "Name": "Arch St at Franklin St", "District": "Boston", "Public": "Yes", "Total docks": 31.0 }, "geometry": { "type": "Point", "coordinates": [ -71.05822917, 42.35533502 ] } },
{ "type": "Feature", "properties": { "Number": "C32048", "Name": "Archdale Rd at Washington St", "District": "Boston", "Public": "Yes", "Total docks": 15.0 }, "geometry": { "type": "Point", "coordinates": [ -71.12119539, 42.29266593 ] } },
{ "type": "Feature", "properties": { "Number": "C32062", "Name": "Ashmont T Stop", "District": "Boston", "Public": "Yes", "Total docks": 15.0 }, "geometry": { "type": "Point", "coordinates": [ -71.0641389, 42.2856944 ] } },
{ "type": "Feature", "properties": { "Number": "S32018", "Name": "Assembly Square T", "District": "Somerville", "Public": "Yes", "Total docks": 15.0 }, "geometry": { "type": "Point", "coordinates": [ -71.07746601, 42.39223284 ] } },
{ "type": "Feature", "properties": { "Number": "A32003", "Name": "B.U. Central - 725 Comm. Ave.", "District": "Boston", "Public": "Yes", "Total docks": 11.0 }, "geometry": { "type": "Point", "coordinates": [ -71.108279, 42.350406 ] } },
{ "type": "Feature", "properties": { "Number": "C32003", "Name": "Back Bay T Stop - Dartmouth St at Stuart St", "District": "Boston", "Public": "Yes", "Total docks": 19.0 }, "geometry": { "type": "Point", "coordinates": [ -71.07657015, 42.34807412 ] } },
{ "type": "Feature", "properties": { "Number": "S32007", "Name": "Ball Sq", "District": "Somerville", "Public": "Yes", "Total docks": 15.0 }, "geometry": { "type": "Point", "coordinates": [ -71.11104455, 42.3991826 ] } },
{ "type": "Feature", "properties": { "Number": "B32055", "Name": "Bartlett St at John Elliot Sq", "District": "Boston", "Public": "Yes", "Total docks": 15.0 }, "geometry": { "type": "Point", "coordinates": [ -71.0901582, 42.3294633 ] } },
{ "type": "Feature", "properties": { "Number": "D32024", "Name": "Beacon St at Charles St", "District": "Boston", "Public": "Yes", "Total docks": 15.0 }, "geometry": { "type": "Point", "coordinates": [ -71.069849, 42.356052 ] } },
{ "type": "Feature", "properties": { "Number": "K32016", "Name": "Beacon St at Hawes St", "District": "Brookline", "Public": "Yes", "Total docks": 15.0 }, "geometry": { "type": "Point", "coordinates": [ -71.11040177, 42.34496783 ] } },
{ "type": "Feature", "properties": { "Number": "B32016", "Name": "Beacon St at Massachusetts Ave", "District": "Boston", "Public": "Yes", "Total docks": 19.0 }, "geometry": { "type": "Point", "coordinates": [ -71.08981088, 42.35082681 ] } },
{ "type": "Feature", "properties": { "Number": "K32015", "Name": "Beacon St at St. Paul St", "District": "Brookline", "Public": "Yes", "Total docks": 15.0 }, "geometry": { "type": "Point", "coordinates": [ -71.11614107, 42.34373095 ] } },
{ "type": "Feature", "properties": { "Number": "K32002", "Name": "Beacon St at Tappan St", "District": "Brookline", "Public": "Yes", "Total docks": 15.0 }, "geometry": { "type": "Point", "coordinates": [ -71.13894682, 42.3382668 ] } },
{ "type": "Feature", "properties": { "Number": "S32003", "Name": "Beacon St at Washington \/ Kirkland", "District": "Somerville", "Public": "Yes", "Total docks": 19.0 }, "geometry": { "type": "Point", "coordinates": [ -71.105668, 42.37842 ] } },
{ "type": "Feature", "properties": { "Number": "C32059", "Name": "Belgrade Ave at Walworth St", "District": "Boston", "Public": "Yes", "Total docks": 15.0 }, "geometry": { "type": "Point", "coordinates": [ -71.1367213, 42.28634589 ] } },
{ "type": "Feature", "properties": { "Number": "A32028", "Name": "Bennington St at Byron St", "District": "Boston", "Public": "Yes", "Total docks": 15.0 }, "geometry": { "type": "Point", "coordinates": [ -71.01619095, 42.38353252 ] } },
{ "type": "Feature", "properties": { "Number": "A32039", "Name": "Bennington St at Constitution Beach", "District": "Boston", "Public": "Yes", "Total docks": 17.0 }, "geometry": { "type": "Point", "coordinates": [ -71.01063069, 42.38522394 ] } },
{ "type": "Feature", "properties": { "Number": "M32067", "Name": "Berkshire Street at Cambridge Street", "District": "Cambridge", "Public": "Yes", "Total docks": 19.0 }, "geometry": { "type": "Point", "coordinates": [ -71.08995434, 42.37207658 ] } },
{ "type": "Feature", "properties": { "Number": "M32027", "Name": "Binney St \/ Sixth St", "District": "Cambridge", "Public": "Yes", "Total docks": 19.0 }, "geometry": { "type": "Point", "coordinates": [ -71.08633604, 42.36608797 ] } },
{ "type": "Feature", "properties": { "Number": "D32050", "Name": "Blossom St at Charles St", "District": "Boston", "Public": "Yes", "Total docks": 15.0 }, "geometry": { "type": "Point", "coordinates": [ -71.06959369, 42.36435589 ] } },
{ "type": "Feature", "properties": { "Number": "C32044", "Name": "Blue Hill Ave at Almont St", "District": "Boston", "Public": "Yes", "Total docks": 19.0 }, "geometry": { "type": "Point", "coordinates": [ -71.09372552, 42.27462067 ] } },
{ "type": "Feature", "properties": { "Number": "B32057", "Name": "Blue Hill Ave at Southwood St", "District": "Boston", "Public": "Yes", "Total docks": 15.0 }, "geometry": { "type": "Point", "coordinates": [ -71.07798629, 42.31786021 ] } },
{ "type": "Feature", "properties": { "Number": "B32008", "Name": "Boston City Hall - 28 State St", "District": "Boston", "Public": "Yes", "Total docks": 21.0 }, "geometry": { "type": "Point", "coordinates": [ -71.057629, 42.35892 ] } },
{ "type": "Feature", "properties": { "Number": "D32018", "Name": "Boston Convention and Exhibition Center - Summer St at West Side Dr", "District": "Boston", "Public": "Yes", "Total docks": 23.0 }, "geometry": { "type": "Point", "coordinates": [ -71.04535997, 42.34776345 ] } },
{ "type": "Feature", "properties": { "Number": "A32036", "Name": "Boston East - 126 Border St", "District": "Boston", "Public": "Yes", "Total docks": 15.0 }, "geometry": { "type": "Point", "coordinates": [ -71.04102008, 42.37331213 ] } },
{ "type": "Feature", "properties": { "Number": "A32045", "Name": "Boston Landing", "District": "Boston", "Public": "Yes", "Total docks": 17.0 }, "geometry": { "type": "Point", "coordinates": [ -71.14167538, 42.35656092 ] } },
{ "type": "Feature", "properties": { "Number": "C32002", "Name": "Boston Medical Center - E Concord St at Harrison Ave", "District": "Boston", "Public": "Yes", "Total docks": 19.0 }, "geometry": { "type": "Point", "coordinates": [ -71.07306711, 42.33639915 ] } },
{ "type": "Feature", "properties": { "Number": "D32044", "Name": "Boston Public Market", "District": "Boston", "Public": "Yes", "Total docks": 15.0 }, "geometry": { "type": "Point", "coordinates": [ -71.05737358, 42.36254854 ] } },
{ "type": "Feature", "properties": { "Number": "B32031", "Name": "Bowdoin St at Quincy St", "District": "Boston", "Public": "Yes", "Total docks": 15.0 }, "geometry": { "type": "Point", "coordinates": [ -71.06512249, 42.30785224 ] } },
{ "type": "Feature", "properties": { "Number": "D32007", "Name": "Boylston St at Arlington St", "District": "Boston", "Public": "Yes", "Total docks": 31.0 }, "geometry": { "type": "Point", "coordinates": [ -71.0705781, 42.35204262 ] } },
{ "type": "Feature", "properties": { "Number": "D32013", "Name": "Boylston St at Berkeley St", "District": "Boston", "Public": "Yes", "Total docks": 15.0 }, "geometry": { "type": "Point", "coordinates": [ -71.07329249, 42.35114198 ] } },
{ "type": "Feature", "properties": { "Number": "D32055", "Name": "Boylston St at Dartmouth St", "District": "Boston", "Public": "Yes", "Total docks": 15.0 }, "geometry": { "type": "Point", "coordinates": [ -71.07720464, 42.3501061 ] } },
{ "type": "Feature", "properties": { "Number": "D32046", "Name": "Boylston St at Exeter St", "District": "Boston", "Public": "Yes", "Total docks": 19.0 }, "geometry": { "type": "Point", "coordinates": [ -71.07946779, 42.34958942 ] } },
{ "type": "Feature", "properties": { "Number": "C32008", "Name": "Boylston St at Fairfield St", "District": "Boston", "Public": "Yes", "Total docks": 19.0 }, "geometry": { "type": "Point", "coordinates": [ -71.082383, 42.348762 ] } },
{ "type": "Feature", "properties": { "Number": "B32034", "Name": "Boylston St at Jersey St", "District": "Boston", "Public": "Yes", "Total docks": 15.0 }, "geometry": { "type": "Point", "coordinates": [ -71.09732501, 42.34465063 ] } },
{ "type": "Feature", "properties": { "Number": "B32018", "Name": "Boylston St at Massachusetts Ave", "District": "Boston", "Public": "Yes", "Total docks": 15.0 }, "geometry": { "type": "Point", "coordinates": [ -71.08678415, 42.34740621 ] } },
{ "type": "Feature", "properties": { "Number": "B32013", "Name": "Brigham Circle - Francis St at Huntington Ave", "District": "Boston", "Public": "Yes", "Total docks": 15.0 }, "geometry": { "type": "Point", "coordinates": [ -71.10407918, 42.33462893 ] } },
{ "type": "Feature", "properties": { "Number": "D32028", "Name": "Brighton Center - Washington St at Cambridge St", "District": "Boston", "Public": "Yes", "Total docks": 17.0 }, "geometry": { "type": "Point", "coordinates": [ -71.15027189, 42.34894857 ] } },
{ "type": "Feature", "properties": { "Number": "A32005", "Name": "Brighton Mills - 370 Western Ave", "District": "Boston", "Public": "Yes", "Total docks": 15.0 }, "geometry": { "type": "Point", "coordinates": [ -71.13776207, 42.36154571 ] } },
{ "type": "Feature", "properties": { "Number": "A32047", "Name": "Broad St at Central St", "District": "Boston", "Public": "Yes", "Total docks": 19.0 }, "geometry": { "type": "Point", "coordinates": [ -71.0542647, 42.35849449 ] } },
{ "type": "Feature", "properties": { "Number": "V32011", "Name": "Broadway at Beacham St", "District": "Everett", "Public": "Yes", "Total docks": 15.0 }, "geometry": { "type": "Point", "coordinates": [ -71.06373843, 42.3983606 ] } },
{ "type": "Feature", "properties": { "Number": "S32016", "Name": "Broadway at Central St", "District": "Somerville", "Public": "Yes", "Total docks": 15.0 }, "geometry": { "type": "Point", "coordinates": [ -71.09850592, 42.3951715 ] } },
{ "type": "Feature", "properties": { "Number": "V32004", "Name": "Broadway at Lynde St", "District": "Everett", "Public": "Yes", "Total docks": 15.0 }, "geometry": { "type": "Point", "coordinates": [ -71.0654676, 42.39648358 ] } },
{ "type": "Feature", "properties": { "Number": "V32008", "Name": "Broadway at Maple St", "District": "Everett", "Public": "Yes", "Total docks": 14.0 }, "geometry": { "type": "Point", "coordinates": [ -71.05260458, 42.41034691 ] } },
{ "type": "Feature", "properties": { "Number": "S32014", "Name": "Broadway St at Mt Pleasant St", "District": "Somerville", "Public": "Yes", "Total docks": 19.0 }, "geometry": { "type": "Point", "coordinates": [ -71.0782814, 42.38614141 ] } },
{ "type": "Feature", "properties": { "Number": "K32005", "Name": "Brookline Town Hall", "District": "Brookline", "Public": "Yes", "Total docks": 15.0 }, "geometry": { "type": "Point", "coordinates": [ -71.12046447, 42.33376473 ] } },
{ "type": "Feature", "properties": { "Number": "K32003", "Name": "Brookline Village - Station Street at MBTA", "District": "Brookline", "Public": "Yes", "Total docks": 19.0 }, "geometry": { "type": "Point", "coordinates": [ -71.11626681, 42.33274392 ] } },
{ "type": "Feature", "properties": { "Number": "A32023", "Name": "Bunker Hill Community College", "District": "Boston", "Public": "Yes", "Total docks": 23.0 }, "geometry": { "type": "Point", "coordinates": [ -71.06905997, 42.37408991 ] } },
{ "type": "Feature", "properties": { "Number": "B32020", "Name": "Burlington Ave at Brookline Ave", "District": "Boston", "Public": "Yes", "Total docks": 15.0 }, "geometry": { "type": "Point", "coordinates": [ -71.100694, 42.345733 ] } },
{ "type": "Feature", "properties": { "Number": "M32052", "Name": "Cambridge Dept. of Public Works -147 Hampshire St.", "District": "Cambridge", "Public": "Yes", "Total docks": 19.0 }, "geometry": { "type": "Point", "coordinates": [ -71.09759867, 42.37119728 ] } },
{ "type": "Feature", "properties": { "Number": "M32013", "Name": "Cambridge Main Library at Broadway \/ Trowbridge St", "District": "Cambridge", "Public": "Yes", "Total docks": 19.0 }, "geometry": { "type": "Point", "coordinates": [ -71.111075, 42.373379 ] } },
{ "type": "Feature", "properties": { "Number": "M32007", "Name": "Cambridge St - at Columbia St \/ Webster Ave", "District": "Cambridge", "Public": "Yes", "Total docks": 15.0 }, "geometry": { "type": "Point", "coordinates": [ -71.094445, 42.372969 ] } },
{ "type": "Feature", "properties": { "Number": "D32000", "Name": "Cambridge St at Joy St", "District": "Boston", "Public": "Yes", "Total docks": 15.0 }, "geometry": { "type": "Point", "coordinates": [ -71.06528744, 42.36125722 ] } },
{ "type": "Feature", "properties": { "Number": "M32019", "Name": "CambridgeSide Galleria - CambridgeSide PL at Land Blvd", "District": "Cambridge", "Public": "Yes", "Total docks": 15.0 }, "geometry": { "type": "Point", "coordinates": [ -71.076472, 42.366981 ] } },
{ "type": "Feature", "properties": { "Number": "A32046", "Name": "Canal St at Causeway St", "District": "Boston", "Public": "Yes", "Total docks": 23.0 }, "geometry": { "type": "Point", "coordinates": [ -71.06092191, 42.36530095 ] } },
{ "type": "Feature", "properties": { "Number": "C32088", "Name": "Central Ave at River St", "District": "Boston", "Public": "Yes", "Total docks": 15.0 }, "geometry": { "type": "Point", "coordinates": [ -71.07337901, 42.27094707 ] } },
{ "type": "Feature", "properties": { "Number": "M32012", "Name": "Central Sq Post Office \/ Cambridge City Hall at Mass Ave \/ Pleasant St", "District": "Cambridge", "Public": "Yes", "Total docks": 17.0 }, "geometry": { "type": "Point", "coordinates": [ -71.105495, 42.366426 ] } },
{ "type": "Feature", "properties": { "Number": "M32011", "Name": "Central Square at Mass Ave \/ Essex St", "District": "Cambridge", "Public": "Yes", "Total docks": 19.0 }, "geometry": { "type": "Point", "coordinates": [ -71.1031, 42.36507 ] } },
{ "type": "Feature", "properties": { "Number": "A32041", "Name": "Central Square East Boston", "District": "Boston", "Public": "Yes", "Total docks": 15.0 }, "geometry": { "type": "Point", "coordinates": [ -71.03918549, 42.37544913 ] } },
{ "type": "Feature", "properties": { "Number": "C32086", "Name": "Centre St at Parkway YMCA", "District": "Boston", "Public": "Yes", "Total docks": 19.0 }, "geometry": { "type": "Point", "coordinates": [ -71.15728851, 42.28277901 ] } },
{ "type": "Feature", "properties": { "Number": "E32008", "Name": "Centre St at Seaverns Ave", "District": "Boston", "Public": "Yes", "Total docks": 15.0 }, "geometry": { "type": "Point", "coordinates": [ -71.1142981, 42.3121203 ] } },
{ "type": "Feature", "properties": { "Number": "C32085", "Name": "Centre St at W. Roxbury Post Office", "District": "Boston", "Public": "Yes", "Total docks": 19.0 }, "geometry": { "type": "Point", "coordinates": [ -71.15344755, 42.28633199 ] } },
{ "type": "Feature", "properties": { "Number": "D32016", "Name": "Charles Circle - Charles St at Cambridge St", "District": "Boston", "Public": "Yes", "Total docks": 19.0 }, "geometry": { "type": "Point", "coordinates": [ -71.07118962, 42.36079297 ] } },
{ "type": "Feature", "properties": { "Number": "D32051", "Name": "Charles St at Pinckney St", "District": "Boston", "Public": "Yes", "Total docks": 0.0 }, "geometry": { "type": "Point", "coordinates": [ -71.07079532, 42.3587253 ] } },
{ "type": "Feature", "properties": { "Number": "D32039", "Name": "Charlestown Navy Yard", "District": "Boston", "Public": "Yes", "Total docks": 23.0 }, "geometry": { "type": "Point", "coordinates": [ -71.054812, 42.37412455 ] } },
{ "type": "Feature", "properties": { "Number": "A32027", "Name": "Chelsea St at Saratoga St", "District": "Boston", "Public": "Yes", "Total docks": 15.0 }, "geometry": { "type": "Point", "coordinates": [ -71.027448, 42.379772 ] } },
{ "type": "Feature", "properties": { "Number": "V32009", "Name": "Chelsea St at Vine St", "District": "Everett", "Public": "Yes", "Total docks": 15.0 }, "geometry": { "type": "Point", "coordinates": [ -71.0476264, 42.40328057 ] } },
{ "type": "Feature", "properties": { "Number": "M32049", "Name": "Child St at North St", "District": "Cambridge", "Public": "Yes", "Total docks": 23.0 }, "geometry": { "type": "Point", "coordinates": [ -71.07249312, 42.37150494 ] } },
{ "type": "Feature", "properties": { "Number": "D32015", "Name": "Chinatown Gate Plaza", "District": "Boston", "Public": "Yes", "Total docks": 19.0 }, "geometry": { "type": "Point", "coordinates": [ -71.059367, 42.351356 ] } },
{ "type": "Feature", "properties": { "Number": "D32019", "Name": "Chinatown T Stop", "District": "Boston", "Public": "Yes", "Total docks": 19.0 }, "geometry": { "type": "Point", "coordinates": [ -71.062679, 42.352409 ] } },
{ "type": "Feature", "properties": { "Number": "B32005", "Name": "Christian Science Plaza - Massachusetts Ave at Westland Ave", "District": "Boston", "Public": "Yes", "Total docks": 19.0 }, "geometry": { "type": "Point", "coordinates": [ -71.08582377, 42.34366582 ] } },
{ "type": "Feature", "properties": { "Number": "S32010", "Name": "Clarendon Hill at Broadway", "District": "Somerville", "Public": "Yes", "Total docks": 15.0 }, "geometry": { "type": "Point", "coordinates": [ -71.132446, 42.406302 ] } },
{ "type": "Feature", "properties": { "Number": "D32047", "Name": "Clarendon St at Newbury St", "District": "Boston", "Public": "Yes", "Total docks": 19.0 }, "geometry": { "type": "Point", "coordinates": [ -71.07569031, 42.35155308 ] } },
{ "type": "Feature", "properties": { "Number": "B32035", "Name": "Cleveland Circle", "District": "Boston", "Public": "Yes", "Total docks": 15.0 }, "geometry": { "type": "Point", "coordinates": [ -71.1506152, 42.33554308 ] } },
{ "type": "Feature", "properties": { "Number": "C32055", "Name": "Codman Square Library", "District": "Boston", "Public": "Yes", "Total docks": 17.0 }, "geometry": { "type": "Point", "coordinates": [ -71.071111, 42.2873611 ] } },
{ "type": "Feature", "properties": { "Number": "B32006", "Name": "Colleges of the Fenway - Fenway at Avenue Louis Pasteur", "District": "Boston", "Public": "Yes", "Total docks": 15.0 }, "geometry": { "type": "Point", "coordinates": [ -71.10061884, 42.34011512 ] } },
{ "type": "Feature", "properties": { "Number": "B32029", "Name": "Columbia Rd at Ceylon St", "District": "Boston", "Public": "Yes", "Total docks": 15.0 }, "geometry": { "type": "Point", "coordinates": [ -71.0729, 42.309572 ] } },
{ "type": "Feature", "properties": { "Number": "C32052", "Name": "Columbia Rd at Tierney Community Center", "District": "Boston", "Public": "Yes", "Total docks": 19.0 }, "geometry": { "type": "Point", "coordinates": [ -71.05060093, 42.33023071 ] } },
{ "type": "Feature", "properties": { "Number": "C32077", "Name": "Columbus Ave at W. Canton St", "District": "Boston", "Public": "Yes", "Total docks": 19.0 }, "geometry": { "type": "Point", "coordinates": [ -71.07648162, 42.34474225 ] } },
{ "type": "Feature", "properties": { "Number": "A32002", "Name": "Commonwealth Ave at Agganis Way", "District": "Boston", "Public": "Yes", "Total docks": 15.0 }, "geometry": { "type": "Point", "coordinates": [ -71.11903489, 42.35169202 ] } },
{ "type": "Feature", "properties": { "Number": "K32006", "Name": "Commonwealth Ave At Babcock St", "District": "Brookline", "Public": "Yes", "Total docks": 15.0 }, "geometry": { "type": "Point", "coordinates": [ -71.12126246, 42.35154735 ] } },
{ "type": "Feature", "properties": { "Number": "D32033", "Name": "Commonwealth Ave at Chiswick Rd", "District": "Boston", "Public": "Yes", "Total docks": 19.0 }, "geometry": { "type": "Point", "coordinates": [ -71.15168806, 42.34024645 ] } },
{ "type": "Feature", "properties": { "Number": "A32017", "Name": "Commonwealth Ave at Griggs St", "District": "Boston", "Public": "Yes", "Total docks": 15.0 }, "geometry": { "type": "Point", "coordinates": [ -71.13275303, 42.34922469 ] } },
{ "type": "Feature", "properties": { "Number": "D32034", "Name": "Commonwealth Ave at Kelton St", "District": "Boston", "Public": "Yes", "Total docks": 15.0 }, "geometry": { "type": "Point", "coordinates": [ -71.13997217, 42.34835863 ] } },
{ "type": "Feature", "properties": { "Number": "S32022", "Name": "Community Path at Cedar Street", "District": "Somerville", "Public": "Yes", "Total docks": 15.0 }, "geometry": { "type": "Point", "coordinates": [ -71.11133695, 42.39407224 ] } },
{ "type": "Feature", "properties": { "Number": "D32009", "Name": "Congress St at Boston City Hall", "District": "Boston", "Public": "Yes", "Total docks": 23.0 }, "geometry": { "type": "Point", "coordinates": [ -71.05752244, 42.36041775 ] } },
{ "type": "Feature", "properties": { "Number": "C32032", "Name": "Congress St at Northern Ave", "District": "Boston", "Public": "Yes", "Total docks": 15.0 }, "geometry": { "type": "Point", "coordinates": [ -71.03764, 42.3481 ] } },
{ "type": "Feature", "properties": { "Number": "C32010", "Name": "Congress St at Sleeper St", "District": "Boston", "Public": "Yes", "Total docks": 19.0 }, "geometry": { "type": "Point", "coordinates": [ -71.04930013, 42.3510045 ] } },
{ "type": "Feature", "properties": { "Number": "S32004", "Name": "Conway Park - Somerville Avenue", "District": "Somerville", "Public": "Yes", "Total docks": 23.0 }, "geometry": { "type": "Point", "coordinates": [ -71.107593, 42.383405 ] } },
{ "type": "Feature", "properties": { "Number": "K32001", "Name": "Coolidge Corner - Beacon St at Centre St", "District": "Brookline", "Public": "Yes", "Total docks": 19.0 }, "geometry": { "type": "Point", "coordinates": [ -71.123338, 42.341598 ] } },
{ "type": "Feature", "properties": { "Number": "W32001", "Name": "Coolidge Sq.", "District": "Watertown", "Public": "Yes", "Total docks": 12.0 }, "geometry": { "type": "Point", "coordinates": [ -71.15683131, 42.37207611 ] } },
{ "type": "Feature", "properties": { "Number": "D32005", "Name": "Copley Square - Dartmouth St at Boylston St", "District": "Boston", "Public": "Yes", "Total docks": 33.0 }, "geometry": { "type": "Point", "coordinates": [ -71.07739207, 42.34992828 ] } },
{ "type": "Feature", "properties": { "Number": "S32037", "Name": "Craigie at Summer St", "District": "Somerville", "Public": "Yes", "Total docks": 19.0 }, "geometry": { "type": "Point", "coordinates": [ -71.11067977, 42.38830554 ] } },
{ "type": "Feature", "properties": { "Number": "D32010", "Name": "Cross St at Hanover St", "District": "Boston", "Public": "Yes", "Total docks": 19.0 }, "geometry": { "type": "Point", "coordinates": [ -71.056067, 42.362811 ] } },
{ "type": "Feature", "properties": { "Number": "E32001", "Name": "Curtis Hall - South St at Centre St", "District": "Boston", "Public": "Yes", "Total docks": 15.0 }, "geometry": { "type": "Point", "coordinates": [ -71.11543, 42.309054 ] } },
{ "type": "Feature", "properties": { "Number": "K32009", "Name": "Cypress St at Clark Playground", "District": "Brookline", "Public": "Yes", "Total docks": 15.0 }, "geometry": { "type": "Point", "coordinates": [ -71.12536222, 42.32784317 ] } },
{ "type": "Feature", "properties": { "Number": "M32030", "Name": "Dana Park", "District": "Cambridge", "Public": "Yes", "Total docks": 19.0 }, "geometry": { "type": "Point", "coordinates": [ -71.10809952, 42.36178044 ] } },
{ "type": "Feature", "properties": { "Number": "M32031", "Name": "Danehy Park", "District": "Cambridge", "Public": "Yes", "Total docks": 17.0 }, "geometry": { "type": "Point", "coordinates": [ -71.132788, 42.388966 ] } },
{ "type": "Feature", "properties": { "Number": "D32045", "Name": "Dartmouth St at Newbury St", "District": "Boston", "Public": "Yes", "Total docks": 19.0 }, "geometry": { "type": "Point", "coordinates": [ -71.07782811, 42.35096144 ] } },
{ "type": "Feature", "properties": { "Number": "S32006", "Name": "Davis Square", "District": "Somerville", "Public": "Yes", "Total docks": 25.0 }, "geometry": { "type": "Point", "coordinates": [ -71.123024, 42.396969 ] } },
{ "type": "Feature", "properties": { "Number": "B32037", "Name": "Deerfield St at Commonwealth Ave", "District": "Boston", "Public": "Yes", "Total docks": 19.0 }, "geometry": { "type": "Point", "coordinates": [ -71.0972821, 42.34924377 ] } },
{ "type": "Feature", "properties": { "Number": "M32066", "Name": "Discovery Park - 30 Acorn Park Drive", "District": "Cambridge", "Public": "Yes", "Total docks": 23.0 }, "geometry": { "type": "Point", "coordinates": [ -71.14797131, 42.39790817 ] } },
{ "type": "Feature", "properties": { "Number": "C32009", "Name": "Dorchester Ave at Gillette Park", "District": "Boston", "Public": "Yes", "Total docks": 15.0 }, "geometry": { "type": "Point", "coordinates": [ -71.05737627, 42.34404051 ] } },
{ "type": "Feature", "properties": { "Number": "C32066", "Name": "Dorchester Ave at King St", "District": "Boston", "Public": "Yes", "Total docks": 15.0 }, "geometry": { "type": "Point", "coordinates": [ -71.0625918, 42.29175622 ] } },
{ "type": "Feature", "properties": { "Number": "B32017", "Name": "Dudley Square - Bolling Building", "District": "Boston", "Public": "Yes", "Total docks": 18.0 }, "geometry": { "type": "Point", "coordinates": [ -71.08386572, 42.32984299 ] } },
{ "type": "Feature", "properties": { "Number": "C32015", "Name": "Dudley Town Common - Mt Pleasant Ave at Blue Hill Ave", "District": "Boston", "Public": "Yes", "Total docks": 15.0 }, "geometry": { "type": "Point", "coordinates": [ -71.075354, 42.325333 ] } },
{ "type": "Feature", "properties": { "Number": "C32018", "Name": "E Cottage St at Columbia Rd", "District": "Boston", "Public": "Yes", "Total docks": 19.0 }, "geometry": { "type": "Point", "coordinates": [ -71.06198, 42.320561 ] } },
{ "type": "Feature", "properties": { "Number": "A32031", "Name": "East Boston Neighborhood Health Center - 20 Maverick Square", "District": "Boston", "Public": "Yes", "Total docks": 16.0 }, "geometry": { "type": "Point", "coordinates": [ -71.039431, 42.369536 ] } },
{ "type": "Feature", "properties": { "Number": "S32017", "Name": "East Somerville Library (Broadway and Illinois)", "District": "Somerville", "Public": "Yes", "Total docks": 15.0 }, "geometry": { "type": "Point", "coordinates": [ -71.08318716, 42.38762811 ] } },
{ "type": "Feature", "properties": { "Number": "S32038", "Name": "Edgerly Education Center", "District": "Somerville", "Public": "Yes", "Total docks": 15.0 }, "geometry": { "type": "Point", "coordinates": [ -71.08714389, 42.38717463 ] } },
{ "type": "Feature", "properties": { "Number": "A32022", "Name": "Edwards Playground - Main St at Eden St", "District": "Boston", "Public": "Yes", "Total docks": 19.0 }, "geometry": { "type": "Point", "coordinates": [ -71.068607, 42.378965 ] } },
{ "type": "Feature", "properties": { "Number": "M32034", "Name": "EF - North Point Park", "District": "Cambridge", "Public": "Yes", "Total docks": 23.0 }, "geometry": { "type": "Point", "coordinates": [ -71.069957, 42.369885 ] } },
{ "type": "Feature", "properties": { "Number": "E32004", "Name": "Egleston Square - Atherton St at Washington St", "District": "Boston", "Public": "Yes", "Total docks": 15.0 }, "geometry": { "type": "Point", "coordinates": [ -71.098634, 42.315692 ] } },
{ "type": "Feature", "properties": { "Number": "S32039", "Name": "Elm St at White St", "District": "Somerville", "Public": "Yes", "Total docks": 19.0 }, "geometry": { "type": "Point", "coordinates": [ -71.1169414, 42.38952436 ] } },
{ "type": "Feature", "properties": { "Number": "V32005", "Name": "Encore", "District": "Everett", "Public": "Yes", "Total docks": 15.0 }, "geometry": { "type": "Point", "coordinates": [ -71.0724476, 42.39329263 ] } },
{ "type": "Feature", "properties": { "Number": "V32003", "Name": "Everett Square (Broadway at Chelsea St)", "District": "Everett", "Public": "Yes", "Total docks": 14.0 }, "geometry": { "type": "Point", "coordinates": [ -71.05546381, 42.40725945 ] } },
{ "type": "Feature", "properties": { "Number": "A32000", "Name": "Fan Pier", "District": "Boston", "Public": "Yes", "Total docks": 15.0 }, "geometry": { "type": "Point", "coordinates": [ -71.0445714, 42.35339051 ] } },
{ "type": "Feature", "properties": { "Number": "A32038", "Name": "Faneuil St at Arlington St", "District": "Boston", "Public": "Yes", "Total docks": 15.0 }, "geometry": { "type": "Point", "coordinates": [ -71.15988486, 42.35276621 ] } },
{ "type": "Feature", "properties": { "Number": "C32051", "Name": "Farragut Rd at E. 6th St", "District": "Boston", "Public": "Yes", "Total docks": 23.0 }, "geometry": { "type": "Point", "coordinates": [ -71.02495, 42.3334 ] } },
{ "type": "Feature", "properties": { "Number": "C32041", "Name": "Fields Corner T Stop", "District": "Boston", "Public": "Yes", "Total docks": 15.0 }, "geometry": { "type": "Point", "coordinates": [ -71.0605833, 42.2996667 ] } },
{ "type": "Feature", "properties": { "Number": "E32010", "Name": "Forest Hills", "District": "Boston", "Public": "Yes", "Total docks": 40.0 }, "geometry": { "type": "Point", "coordinates": [ -71.114249, 42.300923 ] } },
{ "type": "Feature", "properties": { "Number": "S32015", "Name": "Foss Park", "District": "Somerville", "Public": "Yes", "Total docks": 15.0 }, "geometry": { "type": "Point", "coordinates": [ -71.09039426, 42.39108438 ] } },
{ "type": "Feature", "properties": { "Number": "C32037", "Name": "Four Corners - 157 Washington St", "District": "Boston", "Public": "Yes", "Total docks": 11.0 }, "geometry": { "type": "Point", "coordinates": [ -71.07929528, 42.30412793 ] } },
{ "type": "Feature", "properties": { "Number": "C32027", "Name": "Franklin Park - Seaver St at Humbolt Ave", "District": "Boston", "Public": "Yes", "Total docks": 15.0 }, "geometry": { "type": "Point", "coordinates": [ -71.092225, 42.309796 ] } },
{ "type": "Feature", "properties": { "Number": "C32030", "Name": "Franklin Park Zoo - Franklin Park Rd at Blue Hill Ave", "District": "Boston", "Public": "Yes", "Total docks": 14.0 }, "geometry": { "type": "Point", "coordinates": [ -71.085347, 42.303469 ] } },
{ "type": "Feature", "properties": { "Number": "M32051", "Name": "Fresh Pond Reservation", "District": "Cambridge", "Public": "Yes", "Total docks": 17.0 }, "geometry": { "type": "Point", "coordinates": [ -71.14347895, 42.38267828 ] } },
{ "type": "Feature", "properties": { "Number": "C32040", "Name": "Gallivan Blvd at Adams St", "District": "Boston", "Public": "Yes", "Total docks": 15.0 }, "geometry": { "type": "Point", "coordinates": [ -71.05466698, 42.28297568 ] } },
{ "type": "Feature", "properties": { "Number": "C32090", "Name": "Geiger Gibson Community Health Center", "District": "Boston", "Public": "Yes", "Total docks": 19.0 }, "geometry": { "type": "Point", "coordinates": [ -71.04536798, 42.31886468 ] } },
{ "type": "Feature", "properties": { "Number": "V32006", "Name": "Glendale Square (Ferry St at Broadway)", "District": "Everett", "Public": "Yes", "Total docks": 15.0 }, "geometry": { "type": "Point", "coordinates": [ -71.04479656, 42.41427294 ] } },
{ "type": "Feature", "properties": { "Number": "A32034", "Name": "Glendon St at Condor St", "District": "Boston", "Public": "Yes", "Total docks": 19.0 }, "geometry": { "type": "Point", "coordinates": [ -71.03024304, 42.38240378 ] } },
{ "type": "Feature", "properties": { "Number": "B32032", "Name": "Government Center - Cambridge St at Court St", "District": "Boston", "Public": "Yes", "Total docks": 23.0 }, "geometry": { "type": "Point", "coordinates": [ -71.05979576, 42.3598254 ] } },
{ "type": "Feature", "properties": { "Number": "M32068", "Name": "Graham and Parks School ? Linnaean St at Walker St", "District": "Cambridge", "Public": "Yes", "Total docks": 19.0 }, "geometry": { "type": "Point", "coordinates": [ -71.12449831, 42.3829443 ] } },
{ "type": "Feature", "properties": { "Number": "E32005", "Name": "Green Street T Stop - Green St at Amory St", "District": "Boston", "Public": "Yes", "Total docks": 23.0 }, "geometry": { "type": "Point", "coordinates": [ -71.107341, 42.310579 ] } },
{ "type": "Feature", "properties": { "Number": "B32028", "Name": "Grove Hall Library - 41 Geneva Ave", "District": "Boston", "Public": "Yes", "Total docks": 15.0 }, "geometry": { "type": "Point", "coordinates": [ -71.080952, 42.30791 ] } },
{ "type": "Feature", "properties": { "Number": "S32019", "Name": "Grove St at Community Path", "District": "Somerville", "Public": "Yes", "Total docks": 15.0 }, "geometry": { "type": "Point", "coordinates": [ -71.12011306, 42.39638681 ] } },
{ "type": "Feature", "properties": { "Number": "V32012", "Name": "Hale Park", "District": "Everett", "Public": "Yes", "Total docks": 11.0 }, "geometry": { "type": "Point", "coordinates": [ -71.05279301, 42.41496265 ] } },
{ "type": "Feature", "properties": { "Number": "D32043", "Name": "Harrison Ave at Bennet St", "District": "Boston", "Public": "Yes", "Total docks": 19.0 }, "geometry": { "type": "Point", "coordinates": [ -71.0620996, 42.3494261 ] } },
{ "type": "Feature", "properties": { "Number": "C32057", "Name": "Harrison Ave at Mullins Way", "District": "Boston", "Public": "Yes", "Total docks": 19.0 }, "geometry": { "type": "Point", "coordinates": [ -71.06384031, 42.34521562 ] } },
{ "type": "Feature", "properties": { "Number": "D32035", "Name": "Harvard Ave at Brainerd Rd", "District": "Boston", "Public": "Yes", "Total docks": 15.0 }, "geometry": { "type": "Point", "coordinates": [ -71.13022771, 42.34953017 ] } },
{ "type": "Feature", "properties": { "Number": "M32016", "Name": "Harvard Kennedy School at Bennett St \/ Eliot St", "District": "Cambridge", "Public": "Yes", "Total docks": 23.0 }, "geometry": { "type": "Point", "coordinates": [ -71.12188071, 42.3722168 ] } },
{ "type": "Feature", "properties": { "Number": "M32020", "Name": "Harvard Law School at Mass Ave \/ Jarvis St", "District": "Cambridge", "Public": "Yes", "Total docks": 19.0 }, "geometry": { "type": "Point", "coordinates": [ -71.119945, 42.379011 ] } },
{ "type": "Feature", "properties": { "Number": "M32017", "Name": "Harvard Square at Brattle St \/ Eliot St", "District": "Cambridge", "Public": "Yes", "Total docks": 15.0 }, "geometry": { "type": "Point", "coordinates": [ -71.120886, 42.373231 ] } },
{ "type": "Feature", "properties": { "Number": "M32018", "Name": "Harvard Square at Mass Ave\/ Dunster", "District": "Cambridge", "Public": "Yes", "Total docks": 19.0 }, "geometry": { "type": "Point", "coordinates": [ -71.118579, 42.373268 ] } },
{ "type": "Feature", "properties": { "Number": "M32055", "Name": "Harvard St at Greene-Rose Heritage Park", "District": "Cambridge", "Public": "Yes", "Total docks": 19.0 }, "geometry": { "type": "Point", "coordinates": [ -71.09522222, 42.36599433 ] } },
{ "type": "Feature", "properties": { "Number": "M32023", "Name": "Harvard University \/ SEAS Cruft-Pierce Halls at 29 Oxford St", "District": "Cambridge", "Public": "Yes", "Total docks": 17.0 }, "geometry": { "type": "Point", "coordinates": [ -71.116865, 42.377945 ] } },
{ "type": "Feature", "properties": { "Number": "M32021", "Name": "Harvard University Gund Hall at Quincy St \/ Kirkland St", "District": "Cambridge", "Public": "Yes", "Total docks": 15.0 }, "geometry": { "type": "Point", "coordinates": [ -71.114025, 42.376369 ] } },
{ "type": "Feature", "properties": { "Number": "M32014", "Name": "Harvard University Housing - 115 Putnam Ave at Peabody Terrace", "District": "Cambridge", "Public": "Yes", "Total docks": 15.0 }, "geometry": { "type": "Point", "coordinates": [ -71.114214, 42.366621 ] } },
{ "type": "Feature", "properties": { "Number": "M32024", "Name": "Harvard University Radcliffe Quadrangle at Shepard St \/ Garden St", "District": "Cambridge", "Public": "Yes", "Total docks": 19.0 }, "geometry": { "type": "Point", "coordinates": [ -71.125107, 42.380287 ] } },
{ "type": "Feature", "properties": { "Number": "M32038", "Name": "Harvard University River Houses at DeWolfe St \/ Cowperthwaite St", "District": "Cambridge", "Public": "Yes", "Total docks": 19.0 }, "geometry": { "type": "Point", "coordinates": [ -71.11638672, 42.36912158 ] } },
{ "type": "Feature", "properties": { "Number": "D32026", "Name": "Hayes Square - Vine St at Moulton St", "District": "Boston", "Public": "Yes", "Total docks": 19.0 }, "geometry": { "type": "Point", "coordinates": [ -71.056605, 42.377022 ] } },
{ "type": "Feature", "properties": { "Number": "K32010", "Name": "High St at Cypress St", "District": "Brookline", "Public": "Yes", "Total docks": 15.0 }, "geometry": { "type": "Point", "coordinates": [ -71.12177596, 42.32538436 ] } },
{ "type": "Feature", "properties": { "Number": "B32003", "Name": "HMS\/HSPH - Avenue Louis Pasteur at Longwood Ave", "District": "Boston", "Public": "Yes", "Total docks": 25.0 }, "geometry": { "type": "Point", "coordinates": [ -71.10286117, 42.33741748 ] } },
{ "type": "Feature", "properties": { "Number": "A32040", "Name": "Honan Library", "District": "Boston", "Public": "Yes", "Total docks": 15.0 }, "geometry": { "type": "Point", "coordinates": [ -71.12852452, 42.3602737 ] } },
{ "type": "Feature", "properties": { "Number": "B32033", "Name": "Huntington Ave at Mass Art", "District": "Boston", "Public": "Yes", "Total docks": 15.0 }, "geometry": { "type": "Point", "coordinates": [ -71.09886996, 42.33658555 ] } },
{ "type": "Feature", "properties": { "Number": "M32044", "Name": "Huron Ave At Vassal Lane", "District": "Cambridge", "Public": "Yes", "Total docks": 19.0 }, "geometry": { "type": "Point", "coordinates": [ -71.13426982, 42.38165061 ] } },
{ "type": "Feature", "properties": { "Number": "C32089", "Name": "Hyde Park Ave at Walk Hill St", "District": "Boston", "Public": "Yes", "Total docks": 15.0 }, "geometry": { "type": "Point", "coordinates": [ -71.116012, 42.29606705 ] } },
{ "type": "Feature", "properties": { "Number": "E32003", "Name": "Hyde Square - Barbara St at Centre St", "District": "Boston", "Public": "Yes", "Total docks": 15.0 }, "geometry": { "type": "Point", "coordinates": [ -71.10984161, 42.32176526 ] } },
{ "type": "Feature", "properties": { "Number": "C32020", "Name": "ID Building East", "District": "Boston", "Public": "Yes", "Total docks": 17.0 }, "geometry": { "type": "Point", "coordinates": [ -71.028664, 42.344827 ] } },
{ "type": "Feature", "properties": { "Number": "C32021", "Name": "ID Building West", "District": "Boston", "Public": "Yes", "Total docks": 19.0 }, "geometry": { "type": "Point", "coordinates": [ -71.031614, 42.344796 ] } },
{ "type": "Feature", "properties": { "Number": "C32025", "Name": "Ink Block - Harrison Ave at Herald St", "District": "Boston", "Public": "Yes", "Total docks": 15.0 }, "geometry": { "type": "Point", "coordinates": [ -71.063187, 42.345901 ] } },
{ "type": "Feature", "properties": { "Number": "M32062", "Name": "Inman Square at Springfield St.", "District": "Cambridge", "Public": "Yes", "Total docks": 19.0 }, "geometry": { "type": "Point", "coordinates": [ -71.10015746, 42.37438409 ] } },
{ "type": "Feature", "properties": { "Number": "A32011", "Name": "Innovation Lab - 125 Western Ave at Batten Way", "District": "Boston", "Public": "Yes", "Total docks": 15.0 }, "geometry": { "type": "Point", "coordinates": [ -71.12298574, 42.36314499 ] } },
{ "type": "Feature", "properties": { "Number": "E32006", "Name": "Jackson Square T Stop", "District": "Boston", "Public": "Yes", "Total docks": 18.0 }, "geometry": { "type": "Point", "coordinates": [ -71.10014141, 42.32293117 ] } },
{ "type": "Feature", "properties": { "Number": "D32052", "Name": "Jamaica St at South St", "District": "Boston", "Public": "Yes", "Total docks": 19.0 }, "geometry": { "type": "Point", "coordinates": [ -71.11570891, 42.30604563 ] } },
{ "type": "Feature", "properties": { "Number": "K32004", "Name": "JFK Crossing at Harvard St. \/ Thorndike St.", "District": "Brookline", "Public": "Yes", "Total docks": 15.0 }, "geometry": { "type": "Point", "coordinates": [ -71.128374, 42.346563 ] } },
{ "type": "Feature", "properties": { "Number": "C32013", "Name": "JFK\/UMass T Stop", "District": "Boston", "Public": "Yes", "Total docks": 15.0 }, "geometry": { "type": "Point", "coordinates": [ -71.05118036, 42.32033974 ] } },
{ "type": "Feature", "properties": { "Number": "M32032", "Name": "Kendall Street", "District": "Cambridge", "Public": "Yes", "Total docks": 15.0 }, "geometry": { "type": "Point", "coordinates": [ -71.08216792, 42.36356016 ] } },
{ "type": "Feature", "properties": { "Number": "M32004", "Name": "Kendall T", "District": "Cambridge", "Public": "Yes", "Total docks": 23.0 }, "geometry": { "type": "Point", "coordinates": [ -71.08495474, 42.36242784 ] } },
{ "type": "Feature", "properties": { "Number": "B32010", "Name": "Kenmore Square", "District": "Boston", "Public": "Yes", "Total docks": 27.0 }, "geometry": { "type": "Point", "coordinates": [ -71.097009, 42.348706 ] } },
{ "type": "Feature", "properties": { "Number": "M32065", "Name": "Kennedy-Longfellow School 158 Spring St", "District": "Cambridge", "Public": "Yes", "Total docks": 19.0 }, "geometry": { "type": "Point", "coordinates": [ -71.08579015, 42.36955298 ] } },
{ "type": "Feature", "properties": { "Number": "M32009", "Name": "Lafayette Square at Mass Ave \/ Main St \/ Columbia St", "District": "Cambridge", "Public": "Yes", "Total docks": 15.0 }, "geometry": { "type": "Point", "coordinates": [ -71.10057324, 42.36346469 ] } },
{ "type": "Feature", "properties": { "Number": "B32015", "Name": "Landmark Center - Brookline Ave at Park Dr", "District": "Boston", "Public": "Yes", "Total docks": 15.0 }, "geometry": { "type": "Point", "coordinates": [ -71.10235287, 42.34369056 ] } },
{ "type": "Feature", "properties": { "Number": "B32058", "Name": "Lansdowne T Stop", "District": "Boston", "Public": "Yes", "Total docks": 27.0 }, "geometry": { "type": "Point", "coordinates": [ -71.10016808, 42.34734473 ] } },
{ "type": "Feature", "properties": { "Number": "M32001", "Name": "Lechmere Station at Cambridge St \/ First St", "District": "Cambridge", "Public": "Yes", "Total docks": 19.0 }, "geometry": { "type": "Point", "coordinates": [ -71.076529, 42.370677 ] } },
{ "type": "Feature", "properties": { "Number": "M32039", "Name": "Lesley University", "District": "Cambridge", "Public": "Yes", "Total docks": 15.0 }, "geometry": { "type": "Point", "coordinates": [ -71.11901879, 42.38674802 ] } },
{ "type": "Feature", "properties": { "Number": "D32006", "Name": "Lewis Wharf at Atlantic Ave", "District": "Boston", "Public": "Yes", "Total docks": 19.0 }, "geometry": { "type": "Point", "coordinates": [ -71.050877, 42.363871 ] } },
{ "type": "Feature", "properties": { "Number": "M32025", "Name": "Linear Park - Mass. Ave. at Cameron Ave.", "District": "Cambridge", "Public": "Yes", "Total docks": 19.0 }, "geometry": { "type": "Point", "coordinates": [ -71.130516, 42.397828 ] } },
{ "type": "Feature", "properties": { "Number": "A32004", "Name": "Longwood Ave at Binney St", "District": "Boston", "Public": "Yes", "Total docks": 15.0 }, "geometry": { "type": "Point", "coordinates": [ -71.1065, 42.338629 ] } },
{ "type": "Feature", "properties": { "Number": "M32022", "Name": "Lower Cambridgeport at Magazine St \/ Riverside Rd", "District": "Cambridge", "Public": "Yes", "Total docks": 19.0 }, "geometry": { "type": "Point", "coordinates": [ -71.11387163, 42.3572185 ] } },
{ "type": "Feature", "properties": { "Number": "S32013", "Name": "Magoun Square at Trum Field", "District": "Somerville", "Public": "Yes", "Total docks": 15.0 }, "geometry": { "type": "Point", "coordinates": [ -71.10594004, 42.3977834 ] } },
{ "type": "Feature", "properties": { "Number": "D32020", "Name": "Main St at Austin St", "District": "Boston", "Public": "Yes", "Total docks": 11.0 }, "geometry": { "type": "Point", "coordinates": [ -71.064608, 42.375603 ] } },
{ "type": "Feature", "properties": { "Number": "D32036", "Name": "Main St at Baldwin St", "District": "Boston", "Public": "Yes", "Total docks": 19.0 }, "geometry": { "type": "Point", "coordinates": [ -71.070629, 42.380857 ] } },
{ "type": "Feature", "properties": { "Number": "D32038", "Name": "Main St at Thompson Sq", "District": "Boston", "Public": "Yes", "Total docks": 15.0 }, "geometry": { "type": "Point", "coordinates": [ -71.06383499, 42.37487847 ] } },
{ "type": "Feature", "properties": { "Number": "V32002", "Name": "Main Street at Carter Street", "District": "Everett", "Public": "Yes", "Total docks": 11.0 }, "geometry": { "type": "Point", "coordinates": [ -71.06040745, 42.40615157 ] } },
{ "type": "Feature", "properties": { "Number": "K32012", "Name": "Marion St at Harvard St", "District": "Brookline", "Public": "Yes", "Total docks": 15.0 }, "geometry": { "type": "Point", "coordinates": [ -71.1213335, 42.33978053 ] } },
{ "type": "Feature", "properties": { "Number": "M32061", "Name": "Mass Ave at Albany St", "District": "Cambridge", "Public": "Yes", "Total docks": 18.0 }, "geometry": { "type": "Point", "coordinates": [ -71.09670274, 42.36135838 ] } },
{ "type": "Feature", "properties": { "Number": "M32056", "Name": "Mass Ave at Hadley\/Walden", "District": "Cambridge", "Public": "Yes", "Total docks": 19.0 }, "geometry": { "type": "Point", "coordinates": [ -71.12260755, 42.39120972 ] } },
{ "type": "Feature", "properties": { "Number": "C32063", "Name": "Mass Ave T Station", "District": "Boston", "Public": "Yes", "Total docks": 16.0 }, "geometry": { "type": "Point", "coordinates": [ -71.08336953, 42.34135616 ] } },
{ "type": "Feature", "properties": { "Number": "C32004", "Name": "Massachusetts Ave at Columbus Ave", "District": "Boston", "Public": "Yes", "Total docks": 14.0 }, "geometry": { "type": "Point", "coordinates": [ -71.08020781, 42.33949454 ] } },
{ "type": "Feature", "properties": { "Number": "C32050", "Name": "Mattapan Library", "District": "Boston", "Public": "Yes", "Total docks": 15.0 }, "geometry": { "type": "Point", "coordinates": [ -71.09325, 42.2773889 ] } },
{ "type": "Feature", "properties": { "Number": "C32045", "Name": "Mattapan T Stop", "District": "Boston", "Public": "Yes", "Total docks": 15.0 }, "geometry": { "type": "Point", "coordinates": [ -71.093641, 42.267902 ] } },
{ "type": "Feature", "properties": { "Number": "A32030", "Name": "Maverick Square - Lewis Mall", "District": "Boston", "Public": "Yes", "Total docks": 33.0 }, "geometry": { "type": "Point", "coordinates": [ -71.03977829, 42.36884408 ] } },
{ "type": "Feature", "properties": { "Number": "A32044", "Name": "Maverick St at Massport Path", "District": "Boston", "Public": "Yes", "Total docks": 15.0 }, "geometry": { "type": "Point", "coordinates": [ -71.03335975, 42.36774122 ] } },
{ "type": "Feature", "properties": { "Number": "D32037", "Name": "Medford St at Charlestown BCYF", "District": "Boston", "Public": "Yes", "Total docks": 19.0 }, "geometry": { "type": "Point", "coordinates": [ -71.06055722, 42.38042947 ] } },
{ "type": "Feature", "properties": { "Number": "M32006", "Name": "MIT at Mass Ave \/ Amherst St", "District": "Cambridge", "Public": "Yes", "Total docks": 27.0 }, "geometry": { "type": "Point", "coordinates": [ -71.093198, 42.3581 ] } },
{ "type": "Feature", "properties": { "Number": "M32041", "Name": "MIT Pacific St at Purrington St", "District": "Cambridge", "Public": "Yes", "Total docks": 19.0 }, "geometry": { "type": "Point", "coordinates": [ -71.10129476, 42.3595732 ] } },
{ "type": "Feature", "properties": { "Number": "M32005", "Name": "MIT Stata Center at Vassar St \/ Main St", "District": "Cambridge", "Public": "Yes", "Total docks": 35.0 }, "geometry": { "type": "Point", "coordinates": [ -71.09115601, 42.36213123 ] } },
{ "type": "Feature", "properties": { "Number": "M32042", "Name": "MIT Vassar St", "District": "Cambridge", "Public": "Yes", "Total docks": 25.0 }, "geometry": { "type": "Point", "coordinates": [ -71.10394478, 42.35560121 ] } },
{ "type": "Feature", "properties": { "Number": "B32023", "Name": "MLK Blvd at Washington St", "District": "Boston", "Public": "Yes", "Total docks": 15.0 }, "geometry": { "type": "Point", "coordinates": [ -71.09126061, 42.32143814 ] } },
{ "type": "Feature", "properties": { "Number": "C23045", "Name": "Morton St T", "District": "Boston", "Public": "Yes", "Total docks": 15.0 }, "geometry": { "type": "Point", "coordinates": [ -71.08617242, 42.28072514 ] } },
{ "type": "Feature", "properties": { "Number": "M32043", "Name": "Mt Auburn", "District": "Cambridge", "Public": "Yes", "Total docks": 19.0 }, "geometry": { "type": "Point", "coordinates": [ -71.13320231, 42.37478629 ] } },
{ "type": "Feature", "properties": { "Number": "C32080", "Name": "Mt. Hope St at Hyde Park Ave", "District": "Boston", "Public": "Yes", "Total docks": 19.0 }, "geometry": { "type": "Point", "coordinates": [ -71.11874517, 42.28484472 ] } },
{ "type": "Feature", "properties": { "Number": "D32017", "Name": "Mugar Way at Beacon St", "District": "Boston", "Public": "Yes", "Total docks": 19.0 }, "geometry": { "type": "Point", "coordinates": [ -71.0728687, 42.35553628 ] } },
{ "type": "Feature", "properties": { "Number": "C32023", "Name": "Murphy Skating Rink - 1880 Day Blvd", "District": "Boston", "Public": "Yes", "Total docks": 19.0 }, "geometry": { "type": "Point", "coordinates": [ -71.023739, 42.336448 ] } },
{ "type": "Feature", "properties": { "Number": "M32045", "Name": "Museum of Science", "District": "Cambridge", "Public": "Yes", "Total docks": 19.0 }, "geometry": { "type": "Point", "coordinates": [ -71.07116282, 42.36769018 ] } },
{ "type": "Feature", "properties": { "Number": "W32003", "Name": "N. Beacon St at N. Beacon Ct", "District": "Watertown", "Public": "Yes", "Total docks": 11.0 }, "geometry": { "type": "Point", "coordinates": [ -71.18091374, 42.36444157 ] } },
{ "type": "Feature", "properties": { "Number": "A32025", "Name": "Nashua Street at Red Auerbach Way", "District": "Boston", "Public": "Yes", "Total docks": 37.0 }, "geometry": { "type": "Point", "coordinates": [ -71.064263, 42.365673 ] } },
{ "type": "Feature", "properties": { "Number": "B32027", "Name": "NCAAA - Walnut Ave at Crawford St", "District": "Boston", "Public": "Yes", "Total docks": 15.0 }, "geometry": { "type": "Point", "coordinates": [ -71.091946, 42.316902 ] } },
{ "type": "Feature", "properties": { "Number": "D32001", "Name": "New Balance - 20 Guest St", "District": "Boston", "Public": "Yes", "Total docks": 15.0 }, "geometry": { "type": "Point", "coordinates": [ -71.1467354, 42.35732922 ] } },
{ "type": "Feature", "properties": { "Number": "B32000", "Name": "Newbury St at Hereford St", "District": "Boston", "Public": "Yes", "Total docks": 23.0 }, "geometry": { "type": "Point", "coordinates": [ -71.085954, 42.348717 ] } },
{ "type": "Feature", "properties": { "Number": "C32022", "Name": "Newmarket Square T Stop - Massachusetts Ave at Newmarket Square", "District": "Boston", "Public": "Yes", "Total docks": 15.0 }, "geometry": { "type": "Point", "coordinates": [ -71.066498, 42.326599 ] } },
{ "type": "Feature", "properties": { "Number": "C32078", "Name": "Northbourne Rd at Hyde Park Ave", "District": "Boston", "Public": "Yes", "Total docks": 19.0 }, "geometry": { "type": "Point", "coordinates": [ -71.11773666, 42.29118035 ] } },
{ "type": "Feature", "properties": { "Number": "B32012", "Name": "Northeastern University - North Parking Lot", "District": "Boston", "Public": "Yes", "Total docks": 15.0 }, "geometry": { "type": "Point", "coordinates": [ -71.090179, 42.341814 ] } },
{ "type": "Feature", "properties": { "Number": "D32031", "Name": "Oak Square - 615 Washington St", "District": "Boston", "Public": "Yes", "Total docks": 15.0 }, "geometry": { "type": "Point", "coordinates": [ -71.166491, 42.35057 ] } },
{ "type": "Feature", "properties": { "Number": "B32036", "Name": "One Brigham Circle", "District": "Boston", "Public": "Yes", "Total docks": 15.0 }, "geometry": { "type": "Point", "coordinates": [ -71.10446509, 42.3339227 ] } },
{ "type": "Feature", "properties": { "Number": "M32003", "Name": "One Broadway \/ Kendall Sq at Main St \/ 3rd St", "District": "Cambridge", "Public": "Yes", "Total docks": 23.0 }, "geometry": { "type": "Point", "coordinates": [ -71.08311072, 42.36224179 ] } },
{ "type": "Feature", "properties": { "Number": "M32002", "Name": "One Kendall Square at Hampshire St \/ Portland St", "District": "Cambridge", "Public": "Yes", "Total docks": 19.0 }, "geometry": { "type": "Point", "coordinates": [ -71.09169, 42.366277 ] } },
{ "type": "Feature", "properties": { "Number": "M32053", "Name": "One Memorial Drive", "District": "Cambridge", "Public": "Yes", "Total docks": 19.0 }, "geometry": { "type": "Point", "coordinates": [ -71.08043551, 42.36161932 ] } },
{ "type": "Feature", "properties": { "Number": "A32035", "Name": "Orient Heights T Stop - Bennington St at Saratoga St", "District": "Boston", "Public": "Yes", "Total docks": 19.0 }, "geometry": { "type": "Point", "coordinates": [ -71.006098, 42.386781 ] } },
{ "type": "Feature", "properties": { "Number": "S32009", "Name": "Packard Ave at Powderhouse Blvd", "District": "Somerville", "Public": "Yes", "Total docks": 15.0 }, "geometry": { "type": "Point", "coordinates": [ -71.123413, 42.40449 ] } },
{ "type": "Feature", "properties": { "Number": "A32012", "Name": "Packard's Corner - Commonwealth Ave at Brighton Ave", "District": "Boston", "Public": "Yes", "Total docks": 27.0 }, "geometry": { "type": "Point", "coordinates": [ -71.123831, 42.352261 ] } },
{ "type": "Feature", "properties": { "Number": "A32008", "Name": "Park Dr at Buswell St", "District": "Boston", "Public": "Yes", "Total docks": 15.0 }, "geometry": { "type": "Point", "coordinates": [ -71.105301, 42.347241 ] } },
{ "type": "Feature", "properties": { "Number": "D32042", "Name": "Park Plaza at Charles St S.", "District": "Boston", "Public": "Yes", "Total docks": 19.0 }, "geometry": { "type": "Point", "coordinates": [ -71.06781138, 42.35182807 ] } },
{ "type": "Feature", "properties": { "Number": "C32039", "Name": "Park St at Norwell St", "District": "Boston", "Public": "Yes", "Total docks": 15.0 }, "geometry": { "type": "Point", "coordinates": [ -71.07821761, 42.29442579 ] } },
{ "type": "Feature", "properties": { "Number": "S32034", "Name": "Perry Park", "District": "Somerville", "Public": "Yes", "Total docks": 19.0 }, "geometry": { "type": "Point", "coordinates": [ -71.10341903, 42.37927325 ] } },
{ "type": "Feature", "properties": { "Number": "A32029", "Name": "Piers Park", "District": "Boston", "Public": "Yes", "Total docks": 19.0 }, "geometry": { "type": "Point", "coordinates": [ -71.03497177, 42.36489293 ] } },
{ "type": "Feature", "properties": { "Number": "M32029", "Name": "Porter Square Station", "District": "Cambridge", "Public": "Yes", "Total docks": 19.0 }, "geometry": { "type": "Point", "coordinates": [ -71.119084, 42.387995 ] } },
{ "type": "Feature", "properties": { "Number": "D32012", "Name": "Post Office Square", "District": "Boston", "Public": "Yes", "Total docks": 19.0 }, "geometry": { "type": "Point", "coordinates": [ -71.05459746, 42.35585436 ] } },
{ "type": "Feature", "properties": { "Number": "S32008", "Name": "Powder House Circle - Nathan Tufts Park", "District": "Somerville", "Public": "Yes", "Total docks": 15.0 }, "geometry": { "type": "Point", "coordinates": [ -71.116772, 42.400877 ] } },
{ "type": "Feature", "properties": { "Number": "C32007", "Name": "Prudential Center - 101 Huntington Ave", "District": "Boston", "Public": "Yes", "Total docks": 18.0 }, "geometry": { "type": "Point", "coordinates": [ -71.08065777, 42.34652004 ] } },
{ "type": "Feature", "properties": { "Number": "A32026", "Name": "Purchase St at Pearl St", "District": "Boston", "Public": "Yes", "Total docks": 19.0 }, "geometry": { "type": "Point", "coordinates": [ -71.053181, 42.354659 ] } },
{ "type": "Feature", "properties": { "Number": "M32036", "Name": "Rindge Avenue - O'Neill Library", "District": "Cambridge", "Public": "Yes", "Total docks": 19.0 }, "geometry": { "type": "Point", "coordinates": [ -71.129042, 42.392766 ] } },
{ "type": "Feature", "properties": { "Number": "C32058", "Name": "Ring Rd", "District": "Boston", "Public": "Yes", "Total docks": 15.0 }, "geometry": { "type": "Point", "coordinates": [ -71.08044855, 42.34827839 ] } },
{ "type": "Feature", "properties": { "Number": "M32035", "Name": "Rogers St & Land Blvd", "District": "Cambridge", "Public": "Yes", "Total docks": 19.0 }, "geometry": { "type": "Point", "coordinates": [ -71.07699394, 42.36575798 ] } },
{ "type": "Feature", "properties": { "Number": "C32047", "Name": "Roslindale Village - South St", "District": "Boston", "Public": "Yes", "Total docks": 15.0 }, "geometry": { "type": "Point", "coordinates": [ -71.127754, 42.287072 ] } },
{ "type": "Feature", "properties": { "Number": "C32046", "Name": "Roslindale Village - Washington St", "District": "Boston", "Public": "Yes", "Total docks": 15.0 }, "geometry": { "type": "Point", "coordinates": [ -71.12820532, 42.28630716 ] } },
{ "type": "Feature", "properties": { "Number": "D32008", "Name": "Rowes Wharf at Atlantic Ave", "District": "Boston", "Public": "Yes", "Total docks": 15.0 }, "geometry": { "type": "Point", "coordinates": [ -71.050699, 42.357143 ] } },
{ "type": "Feature", "properties": { "Number": "C32001", "Name": "Roxbury Crossing T Stop - Columbus Ave at Tremont St", "District": "Boston", "Public": "Yes", "Total docks": 23.0 }, "geometry": { "type": "Point", "coordinates": [ -71.095171, 42.331184 ] } },
{ "type": "Feature", "properties": { "Number": "B32022", "Name": "Roxbury YMCA - Warren St at MLK Blvd", "District": "Boston", "Public": "Yes", "Total docks": 10.0 }, "geometry": { "type": "Point", "coordinates": [ -71.08243078, 42.31787329 ] } },
{ "type": "Feature", "properties": { "Number": "B32002", "Name": "Ruggles T Stop - Columbus Ave at Melnea Cass Blvd", "District": "Boston", "Public": "Yes", "Total docks": 18.0 }, "geometry": { "type": "Point", "coordinates": [ -71.08798563, 42.33624445 ] } },
{ "type": "Feature", "properties": { "Number": "C32031", "Name": "Ryan Playground - Dorchester Ave at Harbor View St", "District": "Boston", "Public": "Yes", "Total docks": 15.0 }, "geometry": { "type": "Point", "coordinates": [ -71.056664, 42.317642 ] } },
{ "type": "Feature", "properties": { "Number": "E32007", "Name": "S Huntington Ave at Heath St", "District": "Boston", "Public": "Yes", "Total docks": 15.0 }, "geometry": { "type": "Point", "coordinates": [ -71.1108917, 42.32760387 ] } },
{ "type": "Feature", "properties": { "Number": "C32033", "Name": "Savin Hill T Stop - S Sydney St at Bay St", "District": "Boston", "Public": "Yes", "Total docks": 14.0 }, "geometry": { "type": "Point", "coordinates": [ -71.0539, 42.3106 ] } },
{ "type": "Feature", "properties": { "Number": "C32036", "Name": "Seaport Blvd at Sleeper St", "District": "Boston", "Public": "Yes", "Total docks": 15.0 }, "geometry": { "type": "Point", "coordinates": [ -71.04817357, 42.35317809 ] } },
{ "type": "Feature", "properties": { "Number": "B32014", "Name": "Seaport Hotel - Congress St at Seaport Ln", "District": "Boston", "Public": "Yes", "Total docks": 19.0 }, "geometry": { "type": "Point", "coordinates": [ -71.04167744, 42.34881026 ] } },
{ "type": "Feature", "properties": { "Number": "B32007", "Name": "Seaport Square - Seaport Blvd at Northern Ave", "District": "Boston", "Public": "Yes", "Total docks": 19.0 }, "geometry": { "type": "Point", "coordinates": [ -71.04436085, 42.35148193 ] } },
{ "type": "Feature", "properties": { "Number": "M32063", "Name": "Sennott Park Broadway at Norfolk Street", "District": "Cambridge", "Public": "Yes", "Total docks": 19.0 }, "geometry": { "type": "Point", "coordinates": [ -71.09930186, 42.36860524 ] } },
{ "type": "Feature", "properties": { "Number": "D32048", "Name": "Shawmut Ave at Oak St W", "District": "Boston", "Public": "Yes", "Total docks": 15.0 }, "geometry": { "type": "Point", "coordinates": [ -71.06559185, 42.34854543 ] } },
{ "type": "Feature", "properties": { "Number": "E32009", "Name": "Shawmut T Stop", "District": "Boston", "Public": "Yes", "Total docks": 19.0 }, "geometry": { "type": "Point", "coordinates": [ -71.06575, 42.292917 ] } },
{ "type": "Feature", "properties": { "Number": "M32047", "Name": "Sidney Research Campus\/Erie Street at Waverly", "District": "Cambridge", "Public": "Yes", "Total docks": 19.0 }, "geometry": { "type": "Point", "coordinates": [ -71.10393405, 42.35775309 ] } },
{ "type": "Feature", "properties": { "Number": "D32032", "Name": "Silber Way", "District": "Boston", "Public": "Yes", "Total docks": 19.0 }, "geometry": { "type": "Point", "coordinates": [ -71.10057592, 42.349496 ] } },
{ "type": "Feature", "properties": { "Number": "A32006", "Name": "Soldiers Field Park - 111 Western Ave", "District": "Boston", "Public": "Yes", "Total docks": 15.0 }, "geometry": { "type": "Point", "coordinates": [ -71.1182757, 42.36426344 ] } },
{ "type": "Feature", "properties": { "Number": "S32001", "Name": "Somerville City Hall", "District": "Somerville", "Public": "Yes", "Total docks": 19.0 }, "geometry": { "type": "Point", "coordinates": [ -71.09812, 42.386844 ] } },
{ "type": "Feature", "properties": { "Number": "S32036", "Name": "Somerville City Hall Annex", "District": "Somerville", "Public": "Yes", "Total docks": 19.0 }, "geometry": { "type": "Point", "coordinates": [ -71.09745376, 42.39189812 ] } },
{ "type": "Feature", "properties": { "Number": "S32020", "Name": "Somerville Hospital", "District": "Somerville", "Public": "Yes", "Total docks": 15.0 }, "geometry": { "type": "Point", "coordinates": [ -71.1085595, 42.39044949 ] } },
{ "type": "Feature", "properties": { "Number": "C32017", "Name": "South Boston Library - 646 E Broadway", "District": "Boston", "Public": "Yes", "Total docks": 15.0 }, "geometry": { "type": "Point", "coordinates": [ -71.03877, 42.335741 ] } },
{ "type": "Feature", "properties": { "Number": "A32009", "Name": "South End Library - Tremont St at W Newton St", "District": "Boston", "Public": "Yes", "Total docks": 15.0 }, "geometry": { "type": "Point", "coordinates": [ -71.076847, 42.341332 ] } },
{ "type": "Feature", "properties": { "Number": "A32010", "Name": "South Station - 700 Atlantic Ave", "District": "Boston", "Public": "Yes", "Total docks": 47.0 }, "geometry": { "type": "Point", "coordinates": [ -71.055547, 42.352175 ] } },
{ "type": "Feature", "properties": { "Number": "D32023", "Name": "Spaulding Rehabilitation Hospital - Charlestown Navy Yard", "District": "Boston", "Public": "Yes", "Total docks": 19.0 }, "geometry": { "type": "Point", "coordinates": [ -71.048927, 42.378338 ] } },
{ "type": "Feature", "properties": { "Number": "C32087", "Name": "Spring St at Powell St", "District": "Boston", "Public": "Yes", "Total docks": 19.0 }, "geometry": { "type": "Point", "coordinates": [ -71.16341468, 42.27748444 ] } },
{ "type": "Feature", "properties": { "Number": "K32007", "Name": "St Mary's", "District": "Brookline", "Public": "Yes", "Total docks": 15.0 }, "geometry": { "type": "Point", "coordinates": [ -71.10728681, 42.34619708 ] } },
{ "type": "Feature", "properties": { "Number": "C32024", "Name": "State Street at Channel Center", "District": "Boston", "Public": "Yes", "Total docks": 19.0 }, "geometry": { "type": "Point", "coordinates": [ -71.052608, 42.344137 ] } },
{ "type": "Feature", "properties": { "Number": "D32041", "Name": "Stony Brook T Stop", "District": "Boston", "Public": "Yes", "Total docks": 15.0 }, "geometry": { "type": "Point", "coordinates": [ -71.104374, 42.316966 ] } },
{ "type": "Feature", "properties": { "Number": "D32049", "Name": "Stuart St at Berkeley St", "District": "Boston", "Public": "Yes", "Total docks": 19.0 }, "geometry": { "type": "Point", "coordinates": [ -71.07242074, 42.34954403 ] } },
{ "type": "Feature", "properties": { "Number": "D32011", "Name": "Stuart St at Charles St", "District": "Boston", "Public": "Yes", "Total docks": 18.0 }, "geometry": { "type": "Point", "coordinates": [ -71.066289, 42.351146 ] } },
{ "type": "Feature", "properties": { "Number": "D32053", "Name": "Sullivan Square", "District": "Boston", "Public": "Yes", "Total docks": 19.0 }, "geometry": { "type": "Point", "coordinates": [ -71.07514855, 42.38445226 ] } },
{ "type": "Feature", "properties": { "Number": "A32013", "Name": "Surface Rd at India St", "District": "Boston", "Public": "Yes", "Total docks": 19.0 }, "geometry": { "type": "Point", "coordinates": [ -71.052163, 42.358155 ] } },
{ "type": "Feature", "properties": { "Number": "A32042", "Name": "Surface Rd at Summer St", "District": "Boston", "Public": "Yes", "Total docks": 27.0 }, "geometry": { "type": "Point", "coordinates": [ -71.05656401, 42.3529457 ] } },
{ "type": "Feature", "properties": { "Number": "V32007", "Name": "Swan St. Park", "District": "Everett", "Public": "Yes", "Total docks": 15.0 }, "geometry": { "type": "Point", "coordinates": [ -71.05842225, 42.41250451 ] } },
{ "type": "Feature", "properties": { "Number": "C32064", "Name": "Sydney St at Carson St", "District": "Boston", "Public": "Yes", "Total docks": 19.0 }, "geometry": { "type": "Point", "coordinates": [ -71.05355408, 42.32039374 ] } },
{ "type": "Feature", "properties": { "Number": "C32043", "Name": "Talbot Ave At Blue Hill Ave", "District": "Boston", "Public": "Yes", "Total docks": 15.0 }, "geometry": { "type": "Point", "coordinates": [ -71.087111, 42.2945833 ] } },
{ "type": "Feature", "properties": { "Number": "K32008", "Name": "Tappan St at Brookline Hills MBTA", "District": "Brookline", "Public": "Yes", "Total docks": 15.0 }, "geometry": { "type": "Point", "coordinates": [ -71.12845883, 42.33209606 ] } },
{ "type": "Feature", "properties": { "Number": "S32011", "Name": "Teele Square", "District": "Somerville", "Public": "Yes", "Total docks": 15.0 }, "geometry": { "type": "Point", "coordinates": [ -71.12671129, 42.40231703 ] } },
{ "type": "Feature", "properties": { "Number": "E32011", "Name": "The Dimock Center", "District": "Boston", "Public": "Yes", "Total docks": 16.0 }, "geometry": { "type": "Point", "coordinates": [ -71.09639924, 42.31930943 ] } },
{ "type": "Feature", "properties": { "Number": "A32033", "Name": "The Eddy - New St at Sumner St", "District": "Boston", "Public": "Yes", "Total docks": 15.0 }, "geometry": { "type": "Point", "coordinates": [ -71.044201, 42.370744 ] } },
{ "type": "Feature", "properties": { "Number": "C32028", "Name": "The Lawn on D", "District": "Boston", "Public": "Yes", "Total docks": 19.0 }, "geometry": { "type": "Point", "coordinates": [ -71.044024, 42.344792 ] } },
{ "type": "Feature", "properties": { "Number": "D32054", "Name": "The Overlook at St. Gabriel's", "District": "Boston", "Public": "Yes", "Total docks": 19.0 }, "geometry": { "type": "Point", "coordinates": [ -71.14549814, 42.34679008 ] } },
{ "type": "Feature", "properties": { "Number": "C32049", "Name": "Thetford Ave at Norfolk St", "District": "Boston", "Public": "Yes", "Total docks": 15.0 }, "geometry": { "type": "Point", "coordinates": [ -71.07942931, 42.28621295 ] } },
{ "type": "Feature", "properties": { "Number": "M32048", "Name": "Third at Binney", "District": "Cambridge", "Public": "Yes", "Total docks": 15.0 }, "geometry": { "type": "Point", "coordinates": [ -71.08277142, 42.36544486 ] } },
{ "type": "Feature", "properties": { "Number": "C32000", "Name": "Tremont St at E Berkeley St", "District": "Boston", "Public": "Yes", "Total docks": 19.0 }, "geometry": { "type": "Point", "coordinates": [ -71.069616, 42.345392 ] } },
{ "type": "Feature", "properties": { "Number": "B32056", "Name": "Tremont St at Hamilton Pl", "District": "Boston", "Public": "Yes", "Total docks": 19.0 }, "geometry": { "type": "Point", "coordinates": [ -71.06166646, 42.35668335 ] } },
{ "type": "Feature", "properties": { "Number": "C32056", "Name": "Tremont St at Northampton St", "District": "Boston", "Public": "Yes", "Total docks": 19.0 }, "geometry": { "type": "Point", "coordinates": [ -71.08149976, 42.3388956 ] } },
{ "type": "Feature", "properties": { "Number": "C32060", "Name": "Tremont St at W. Dedham St", "District": "Boston", "Public": "Yes", "Total docks": 15.0 }, "geometry": { "type": "Point", "coordinates": [ -71.07421449, 42.34254914 ] } },
{ "type": "Feature", "properties": { "Number": "D32014", "Name": "Tremont St at West St", "District": "Boston", "Public": "Yes", "Total docks": 15.0 }, "geometry": { "type": "Point", "coordinates": [ -71.063348, 42.354979 ] } },
{ "type": "Feature", "properties": { "Number": "C32035", "Name": "Troy Boston", "District": "Boston", "Public": "Yes", "Total docks": 14.0 }, "geometry": { "type": "Point", "coordinates": [ -71.062256, 42.343749 ] } },
{ "type": "Feature", "properties": { "Number": "A32001", "Name": "Union Square - Brighton Ave at Cambridge St", "District": "Boston", "Public": "Yes", "Total docks": 19.0 }, "geometry": { "type": "Point", "coordinates": [ -71.137313, 42.353334 ] } },
{ "type": "Feature", "properties": { "Number": "S32002", "Name": "Union Square - Somerville", "District": "Somerville", "Public": "Yes", "Total docks": 19.0 }, "geometry": { "type": "Point", "coordinates": [ -71.09391324, 42.37967448 ] } },
{ "type": "Feature", "properties": { "Number": "C32014", "Name": "University of Massachusetts Boston - Campus Center", "District": "Boston", "Public": "Yes", "Total docks": 19.0 }, "geometry": { "type": "Point", "coordinates": [ -71.03648586, 42.31218918 ] } },
{ "type": "Feature", "properties": { "Number": "M32040", "Name": "University Park", "District": "Cambridge", "Public": "Yes", "Total docks": 19.0 }, "geometry": { "type": "Point", "coordinates": [ -71.10006094, 42.36264779 ] } },
{ "type": "Feature", "properties": { "Number": "C32019", "Name": "Uphams Corner", "District": "Boston", "Public": "Yes", "Total docks": 15.0 }, "geometry": { "type": "Point", "coordinates": [ -71.06537004, 42.31727474 ] } },
{ "type": "Feature", "properties": { "Number": "B32025", "Name": "Uphams Corner T Stop - Magnolia St at Dudley St", "District": "Boston", "Public": "Yes", "Total docks": 15.0 }, "geometry": { "type": "Point", "coordinates": [ -71.06978148, 42.31869734 ] } },
{ "type": "Feature", "properties": { "Number": "M32057", "Name": "Vassal Lane at Tobin\/VLUS", "District": "Cambridge", "Public": "Yes", "Total docks": 19.0 }, "geometry": { "type": "Point", "coordinates": [ -71.13961272, 42.38393225 ] } },
{ "type": "Feature", "properties": { "Number": "M32050", "Name": "Verizon Innovation Hub 10 Ware Street", "District": "Cambridge", "Public": "Yes", "Total docks": 19.0 }, "geometry": { "type": "Point", "coordinates": [ -71.11305356, 42.37250865 ] } },
{ "type": "Feature", "properties": { "Number": "C32029", "Name": "W Broadway at D St", "District": "Boston", "Public": "Yes", "Total docks": 23.0 }, "geometry": { "type": "Point", "coordinates": [ -71.0514432, 42.3391085 ] } },
{ "type": "Feature", "properties": { "Number": "C32016", "Name": "W Broadway at Dorchester St", "District": "Boston", "Public": "Yes", "Total docks": 17.0 }, "geometry": { "type": "Point", "coordinates": [ -71.046229, 42.33595898 ] } },
{ "type": "Feature", "properties": { "Number": "B32030", "Name": "Walnut Ave at Warren St", "District": "Boston", "Public": "Yes", "Total docks": 15.0 }, "geometry": { "type": "Point", "coordinates": [ -71.083235, 42.324081 ] } },
{ "type": "Feature", "properties": { "Number": "D32021", "Name": "Warren St at Chelsea St", "District": "Boston", "Public": "Yes", "Total docks": 23.0 }, "geometry": { "type": "Point", "coordinates": [ -71.060292, 42.371848 ] } },
{ "type": "Feature", "properties": { "Number": "V32010", "Name": "Wasgatt Playground", "District": "Everett", "Public": "Yes", "Total docks": 15.0 }, "geometry": { "type": "Point", "coordinates": [ -71.06381878, 42.40933007 ] } },
{ "type": "Feature", "properties": { "Number": "K32014", "Name": "Washington Sq", "District": "Brookline", "Public": "Yes", "Total docks": 15.0 }, "geometry": { "type": "Point", "coordinates": [ -71.13489642, 42.33940659 ] } },
{ "type": "Feature", "properties": { "Number": "C32042", "Name": "Washington St at Bradlee St", "District": "Boston", "Public": "Yes", "Total docks": 15.0 }, "geometry": { "type": "Point", "coordinates": [ -71.07345872, 42.29916498 ] } },
{ "type": "Feature", "properties": { "Number": "D32029", "Name": "Washington St at Brock St", "District": "Boston", "Public": "Yes", "Total docks": 15.0 }, "geometry": { "type": "Point", "coordinates": [ -71.16031677, 42.34895285 ] } },
{ "type": "Feature", "properties": { "Number": "C32081", "Name": "Washington St at Denton Terr", "District": "Boston", "Public": "Yes", "Total docks": 19.0 }, "geometry": { "type": "Point", "coordinates": [ -71.13423757, 42.28072815 ] } },
{ "type": "Feature", "properties": { "Number": "A32037", "Name": "Washington St at Egremont Rd", "District": "Boston", "Public": "Yes", "Total docks": 15.0 }, "geometry": { "type": "Point", "coordinates": [ -71.14127841, 42.34286835 ] } },
{ "type": "Feature", "properties": { "Number": "C32084", "Name": "Washington St at Fuller St", "District": "Boston", "Public": "Yes", "Total docks": 15.0 }, "geometry": { "type": "Point", "coordinates": [ -71.07147925, 42.28198628 ] } },
{ "type": "Feature", "properties": { "Number": "K32011", "Name": "Washington St at Griggs Rd", "District": "Brookline", "Public": "Yes", "Total docks": 15.0 }, "geometry": { "type": "Point", "coordinates": [ -71.1305093, 42.33833424 ] } },
{ "type": "Feature", "properties": { "Number": "C32005", "Name": "Washington St at Lenox St", "District": "Boston", "Public": "Yes", "Total docks": 15.0 }, "geometry": { "type": "Point", "coordinates": [ -71.07903779, 42.33509899 ] } },
{ "type": "Feature", "properties": { "Number": "B32026", "Name": "Washington St at Melnea Cass Blvd", "District": "Boston", "Public": "Yes", "Total docks": 19.0 }, "geometry": { "type": "Point", "coordinates": [ -71.081198, 42.332817 ] } },
{ "type": "Feature", "properties": { "Number": "S32021", "Name": "Washington St at Myrtle St", "District": "Somerville", "Public": "Yes", "Total docks": 15.0 }, "geometry": { "type": "Point", "coordinates": [ -71.08377187, 42.38170676 ] } },
{ "type": "Feature", "properties": { "Number": "C32067", "Name": "Washington St at Peters Park", "District": "Boston", "Public": "Yes", "Total docks": 19.0 }, "geometry": { "type": "Point", "coordinates": [ -71.0668873, 42.34303291 ] } },
{ "type": "Feature", "properties": { "Number": "C32006", "Name": "Washington St at Rutland St", "District": "Boston", "Public": "Yes", "Total docks": 27.0 }, "geometry": { "type": "Point", "coordinates": [ -71.07404083, 42.3385146 ] } },
{ "type": "Feature", "properties": { "Number": "C32038", "Name": "Washington St at Talbot Ave", "District": "Boston", "Public": "Yes", "Total docks": 17.0 }, "geometry": { "type": "Point", "coordinates": [ -71.071806, 42.290333 ] } },
{ "type": "Feature", "properties": { "Number": "C32083", "Name": "Washington St at Walsh Playground", "District": "Boston", "Public": "Yes", "Total docks": 19.0 }, "geometry": { "type": "Point", "coordinates": [ -71.06955614, 42.2771947 ] } },
{ "type": "Feature", "properties": { "Number": "D32002", "Name": "Washington St at Waltham St", "District": "Boston", "Public": "Yes", "Total docks": 15.0 }, "geometry": { "type": "Point", "coordinates": [ -71.0689044, 42.34157472 ] } },
{ "type": "Feature", "properties": { "Number": "C32034", "Name": "Watermark Seaport - Boston Wharf Rd at Seaport Blvd", "District": "Boston", "Public": "Yes", "Total docks": 15.0 }, "geometry": { "type": "Point", "coordinates": [ -71.04569256, 42.351586 ] } },
{ "type": "Feature", "properties": { "Number": "W32002", "Name": "Watertown Sq", "District": "Watertown", "Public": "Yes", "Total docks": 11.0 }, "geometry": { "type": "Point", "coordinates": [ -71.18573324, 42.36526032 ] } },
{ "type": "Feature", "properties": { "Number": "B32021", "Name": "Wentworth Institute of Technology - Huntington Ave at Vancouver St", "District": "Boston", "Public": "Yes", "Total docks": 14.0 }, "geometry": { "type": "Point", "coordinates": [ -71.09627098, 42.33758601 ] } },
{ "type": "Feature", "properties": { "Number": "D32022", "Name": "West End Park", "District": "Boston", "Public": "Yes", "Total docks": 35.0 }, "geometry": { "type": "Point", "coordinates": [ -71.06446669, 42.36590788 ] } },
{ "type": "Feature", "properties": { "Number": "A32043", "Name": "Western Ave at Richardson St", "District": "Boston", "Public": "Yes", "Total docks": 19.0 }, "geometry": { "type": "Point", "coordinates": [ -71.14393111, 42.36178741 ] } },
{ "type": "Feature", "properties": { "Number": "B32059", "Name": "Whittier St Health Center", "District": "Boston", "Public": "Yes", "Total docks": 19.0 }, "geometry": { "type": "Point", "coordinates": [ -71.09218862, 42.33286288 ] } },
{ "type": "Feature", "properties": { "Number": "D32040", "Name": "Williams St at Washington St", "District": "Boston", "Public": "Yes", "Total docks": 19.0 }, "geometry": { "type": "Point", "coordinates": [ -71.107669, 42.306539 ] } },
{ "type": "Feature", "properties": { "Number": "S32005", "Name": "Wilson Square", "District": "Somerville", "Public": "Yes", "Total docks": 15.0 }, "geometry": { "type": "Point", "coordinates": [ -71.11412136, 42.38567579 ] } }
]
}
